{"type":"FeatureCollection","features":[{"type": "Feature", "geometry": {"type": "Point", "coordinates": [1.391725071274857, 43.63094670237166]}, "properties": {"etiquette": "Guyenne-Berry", "nom": "Guyenne-Berry", "ligne": "T1", "geo_point_2d": [43.63094670237166, 1.391725071274857], "couvert": "A\u00e9rien", "en_service": "2010", "type": "Tramway"}},{"type": "Feature", "geometry": {"type": "Point", "coordinates": [1.391274650130047, 43.63442574963648]}, "properties": {"etiquette": "Pasteur-Mairie de Blagnac", "nom": "Pasteur-Mairie de Blagnac", "ligne": "T1", "geo_point_2d": [43.63442574963648, 1.391274650130047], "couvert": "A\u00e9rien", "en_service": "2010", "type": "Tramway"}},{"type": "Feature", "geometry": {"type": "Point", "coordinates": [1.382343869823462, 43.64040392610105]}, "properties": {"etiquette": "Patinoire-Barradels", "nom": "Patinoire-Barradels", "ligne": "T1", "geo_point_2d": [43.64040392610105, 1.382343869823462], "couvert": "A\u00e9rien", "en_service": "2010", "type": "Tramway"}},{"type": "Feature", "geometry": {"type": "Point", "coordinates": [1.373564321696792, 43.6548487730649]}, "properties": {"etiquette": "Androm\u00e8de-Lyc\u00e9e", "nom": "Androm\u00e8de-Lyc\u00e9e", "ligne": "T1", "geo_point_2d": [43.6548487730649, 1.373564321696792], "couvert": "A\u00e9rien", "en_service": "2010", "type": "Tramway"}},{"type": "Feature", "geometry": {"type": "Point", "coordinates": [1.362663970071516, 43.663364866357284]}, "properties": {"etiquette": "A\u00e9roconstellation", "nom": "A\u00e9roconstellation", "ligne": "T1", "geo_point_2d": [43.663364866357284, 1.362663970071516], "couvert": "A\u00e9rien", "en_service": "2010", "type": "Tramway"}},{"type": "Feature", "geometry": {"type": "Point", "coordinates": [1.431792634657204, 43.5893165141653]}, "properties": {"etiquette": "Rapas", "nom": "Rapas", "ligne": "T1", "geo_point_2d": [43.5893165141653, 1.431792634657204], "couvert": "A\u00e9rien", "en_service": "2013", "type": "Tramway"}},{"type": "Feature", "geometry": {"type": "Point", "coordinates": [1.44046900869147, 43.592189808269325]}, "properties": {"etiquette": "Pont Saint-Michel", "nom": "Pont Saint-Michel", "ligne": "T1", "geo_point_2d": [43.592189808269325, 1.44046900869147], "couvert": "A\u00e9rien", "en_service": "2013", "type": "Tramway"}},{"type": "Feature", "geometry": {"type": "Point", "coordinates": [1.386755271858021, 43.6243945788087]}, "properties": {"etiquette": "Nadot", "nom": "Nadot", "ligne": "T2", "geo_point_2d": [43.6243945788087, 1.386755271858021], "couvert": "A\u00e9rien", "en_service": "2015", "type": "Tramway"}},{"type": "Feature", "geometry": {"type": "Point", "coordinates": [1.418141660110676, 43.5928105936446]}, "properties": {"etiquette": "Ar\u00e8nes", "nom": "Ar\u00e8nes", "ligne": "T1", "geo_point_2d": [43.5928105936446, 1.418141660110676], "couvert": "A\u00e9rien", "en_service": "2010", "type": "Tramway"}},{"type": "Feature", "geometry": {"type": "Point", "coordinates": [1.389938692590659, 43.636716624559725]}, "properties": {"etiquette": "Place du Relais", "nom": "Place du Relais", "ligne": "T1", "geo_point_2d": [43.636716624559725, 1.389938692590659], "couvert": "A\u00e9rien", "en_service": "2010", "type": "Tramway"}},{"type": "Feature", "geometry": {"type": "Point", "coordinates": [1.42779329955248, 43.58566018279875]}, "properties": {"etiquette": "Croix de Pierre", "nom": "Croix de Pierre", "ligne": "T1", "geo_point_2d": [43.58566018279875, 1.42779329955248], "couvert": "A\u00e9rien", "en_service": "2013", "type": "Tramway"}},{"type": "Feature", "geometry": {"type": "Point", "coordinates": [1.40938898343565, 43.59478735118793]}, "properties": {"etiquette": "Z\u00e9nith", "nom": "Z\u00e9nith", "ligne": "T1", "geo_point_2d": [43.59478735118793, 1.40938898343565], "couvert": "A\u00e9rien", "en_service": "2010", "type": "Tramway"}},{"type": "Feature", "geometry": {"type": "Point", "coordinates": [1.407725718302199, 43.60320114217057]}, "properties": {"etiquette": "Casselardit", "nom": "Casselardit", "ligne": "T1", "geo_point_2d": [43.60320114217057, 1.407725718302199], "couvert": "A\u00e9rien", "en_service": "2010", "type": "Tramway"}},{"type": "Feature", "geometry": {"type": "Point", "coordinates": [1.393439534590639, 43.62554974986266]}, "properties": {"etiquette": "Servanty-Airbus", "nom": "Servanty-Airbus", "ligne": "T1", "geo_point_2d": [43.62554974986266, 1.393439534590639], "couvert": "A\u00e9rien", "en_service": "2010", "type": "Tramway"}},{"type": "Feature", "geometry": {"type": "Point", "coordinates": [1.37561647100543, 43.64858840664902]}, "properties": {"etiquette": "Place Georges Brassens", "nom": "Place Georges Brassens", "ligne": "T1", "geo_point_2d": [43.64858840664902, 1.37561647100543], "couvert": "A\u00e9rien", "en_service": "2010", "type": "Tramway"}},{"type": "Feature", "geometry": {"type": "Point", "coordinates": [1.42157162039739, 43.58970622139945]}, "properties": {"etiquette": "Lyc\u00e9e D\u00e9odat de S\u00e9verac", "nom": "Lyc\u00e9e D\u00e9odat de S\u00e9verac", "ligne": "T1", "geo_point_2d": [43.58970622139945, 1.42157162039739], "couvert": "A\u00e9rien", "en_service": "2013", "type": "Tramway"}},{"type": "Feature", "geometry": {"type": "Point", "coordinates": [1.435445225472398, 43.5926217438477]}, "properties": {"etiquette": "Fer \u00e0 cheval", "nom": "Fer \u00e0 cheval", "ligne": "T1", "geo_point_2d": [43.5926217438477, 1.435445225472398], "couvert": "A\u00e9rien", "en_service": "2013", "type": "Tramway"}},{"type": "Feature", "geometry": {"type": "Point", "coordinates": [1.444033473170332, 43.5927486159459]}, "properties": {"etiquette": "Palais de justice", "nom": "Palais de justice", "ligne": "T1", "geo_point_2d": [43.5927486159459, 1.444033473170332], "couvert": "A\u00e9rien", "en_service": "2013", "type": "Tramway"}},{"type": "Feature", "geometry": {"type": "Point", "coordinates": [1.374327665134214, 43.63132356308735]}, "properties": {"etiquette": "A\u00e9roport", "nom": "A\u00e9roport", "ligne": "T2", "geo_point_2d": [43.63132356308735, 1.374327665134214], "couvert": "A\u00e9rien", "en_service": "2015", "type": "Tramway"}},{"type": "Feature", "geometry": {"type": "Point", "coordinates": [1.402003531603409, 43.609082349108064]}, "properties": {"etiquette": "Purpan", "nom": "Purpan", "ligne": "T1", "geo_point_2d": [43.609082349108064, 1.402003531603409], "couvert": "A\u00e9rien", "en_service": "2010", "type": "Tramway"}},{"type": "Feature", "geometry": {"type": "Point", "coordinates": [1.396908500685702, 43.61829735226733]}, "properties": {"etiquette": "Ancely", "nom": "Ancely", "ligne": "T1", "geo_point_2d": [43.61829735226733, 1.396908500685702], "couvert": "A\u00e9rien", "en_service": "2010", "type": "Tramway"}},{"type": "Feature", "geometry": {"type": "Point", "coordinates": [1.385202935154726, 43.63624055797633]}, "properties": {"etiquette": "Odyssud-Ritouret", "nom": "Odyssud-Ritouret", "ligne": "T1", "geo_point_2d": [43.63624055797633, 1.385202935154726], "couvert": "A\u00e9rien", "en_service": "2010", "type": "Tramway"}},{"type": "Feature", "geometry": {"type": "Point", "coordinates": [1.37743420164995, 43.64476538565471]}, "properties": {"etiquette": "Grand Noble", "nom": "Grand Noble", "ligne": "T1", "geo_point_2d": [43.64476538565471, 1.37743420164995], "couvert": "A\u00e9rien", "en_service": "2010", "type": "Tramway"}},{"type": "Feature", "geometry": {"type": "Point", "coordinates": [1.379346966051183, 43.62885738620252]}, "properties": {"etiquette": "Daurat", "nom": "Daurat", "ligne": "T2", "geo_point_2d": [43.62885738620252, 1.379346966051183], "couvert": "A\u00e9rien", "en_service": "2015", "type": "Tramway"}},{"type": "Feature", "geometry": {"type": "Point", "coordinates": [1.411352500528176, 43.6008152439551]}, "properties": {"etiquette": "Cartoucherie", "nom": "Cartoucherie", "ligne": "T1", "geo_point_2d": [43.6008152439551, 1.411352500528176], "couvert": "A\u00e9rien", "en_service": "2010", "type": "Tramway"}},{"type": "Feature", "geometry": {"type": "Point", "coordinates": [1.398174680525108, 43.61408516837774]}, "properties": {"etiquette": "Ar\u00e8nes Romaines", "nom": "Ar\u00e8nes Romaines", "ligne": "T1", "geo_point_2d": [43.61408516837774, 1.398174680525108], "couvert": "A\u00e9rien", "en_service": "2010", "type": "Tramway"}},{"type": "Feature", "geometry": {"type": "Point", "coordinates": [1.36949763016396, 43.66026825476749]}, "properties": {"etiquette": "Beauzelle", "nom": "Beauzelle", "ligne": "T1", "geo_point_2d": [43.66026825476749, 1.36949763016396], "couvert": "A\u00e9rien", "en_service": "2010", "type": "Tramway"}}]}